City_ID,City,Country,Date,Lat,Lng,Max Temp,Humidity,Cloudiness,Wind Speed,Current Description
0,Clyde River,CA,2022-07-06 01:23:43,70.4692,-68.5914,41.23,75,0,5.75,clear sky
1,Faanui,PF,2022-07-06 01:23:43,-16.4833,-151.75,79.97,72,0,14.76,light rain
2,Albany,US,2022-07-06 01:23:44,42.6001,-73.9662,69.39,93,100,7.7,overcast clouds
3,San Quintin,MX,2022-07-06 01:23:44,30.4833,-115.95,68.7,78,27,15.86,scattered clouds
4,Khatanga,RU,2022-07-06 01:23:29,71.9667,102.5,55.94,53,100,2.89,overcast clouds
5,Namatanai,PG,2022-07-06 01:23:44,-3.6667,152.4333,84.0,68,100,9.22,light rain
6,Atuona,PF,2022-07-06 01:23:45,-9.8,-139.0333,77.36,77,46,23.55,light rain
7,Dikson,RU,2022-07-06 01:23:45,73.5069,80.5464,34.29,98,100,10.6,overcast clouds
8,Aklavik,CA,2022-07-06 01:22:56,68.2191,-135.0107,69.84,71,89,7.58,light rain
9,Butaritari,KI,2022-07-06 01:22:43,3.0707,172.7902,82.76,75,94,21.7,light rain
10,Bengkulu,ID,2022-07-06 01:22:55,-3.8004,102.2655,77.32,83,97,5.35,overcast clouds
11,Ushuaia,AR,2022-07-06 01:23:45,-54.8,-68.3,26.26,86,0,5.75,clear sky
12,Port Alfred,ZA,2022-07-06 01:23:08,-33.5906,26.891,56.17,95,100,1.01,overcast clouds
13,Jamestown,US,2022-07-06 01:21:11,42.097,-79.2353,77.02,83,75,10.36,broken clouds
14,Mao,ES,2022-07-06 01:23:46,39.8885,4.2658,77.56,73,0,11.5,clear sky
15,Komsomolskiy,UZ,2022-07-06 01:23:46,40.4272,71.7189,68.72,40,9,4.61,clear sky
16,Ponta Do Sol,PT,2022-07-06 01:23:40,32.6667,-17.1,68.72,70,25,5.48,scattered clouds
17,New Norfolk,AU,2022-07-06 01:23:47,-42.7826,147.0587,49.91,85,100,2.19,overcast clouds
18,Dawlatabad,AF,2022-07-06 01:23:47,36.4141,64.9053,72.46,30,0,3.8,clear sky
19,Souillac,MU,2022-07-06 01:23:25,-20.5167,57.5167,66.58,82,75,11.5,broken clouds
20,Kiruna,SE,2022-07-06 01:23:47,67.8557,20.2251,49.12,81,100,3.44,drizzle
21,Busselton,AU,2022-07-06 01:20:40,-33.65,115.3333,52.03,66,0,7.65,clear sky
22,Arraial Do Cabo,BR,2022-07-06 01:19:05,-22.9661,-42.0278,70.39,80,0,21.27,clear sky
23,Cape Town,ZA,2022-07-06 01:23:48,-33.9258,18.4232,55.38,90,40,8.05,scattered clouds
24,Tromso,NO,2022-07-06 01:23:48,69.6496,18.957,51.82,87,100,5.75,moderate rain
25,Punta Arenas,CL,2022-07-06 01:23:49,-53.15,-70.9167,23.11,100,40,11.5,light snow
26,Carnarvon,AU,2022-07-06 01:23:49,-24.8667,113.6333,63.82,41,0,10.87,clear sky
27,Lebu,CL,2022-07-06 01:23:49,-37.6167,-73.65,51.8,85,100,18.07,overcast clouds
28,Cervo,ES,2022-07-06 01:23:50,43.6702,-7.4101,62.82,88,43,18.16,scattered clouds
29,Rikitea,PF,2022-07-06 01:22:35,-23.1203,-134.9692,75.72,72,28,17.0,scattered clouds
30,Baker City,US,2022-07-06 01:23:50,44.7749,-117.8344,80.31,29,0,8.05,clear sky
31,Tasiilaq,GL,2022-07-06 01:23:50,65.6145,-37.6368,39.36,81,35,2.89,scattered clouds
32,Lahaina,US,2022-07-06 01:23:50,20.8783,-156.6825,87.8,80,44,11.07,scattered clouds
33,Kodiak,US,2022-07-06 01:23:51,57.79,-152.4072,63.91,68,100,10.36,overcast clouds
34,Kutum,SD,2022-07-06 01:23:51,14.2,24.6667,75.0,57,12,8.81,few clouds
35,Pisco,PE,2022-07-06 01:23:51,-13.7,-76.2167,60.85,82,20,3.44,mist
36,Lavrentiya,RU,2022-07-06 01:23:52,65.5833,-171.0,46.31,91,100,7.47,overcast clouds
37,Qaanaaq,GL,2022-07-06 01:23:52,77.484,-69.3632,45.28,50,89,3.6,overcast clouds
38,Mataura,NZ,2022-07-06 01:23:52,-46.1927,168.8643,48.47,76,100,7.23,overcast clouds
39,Chokurdakh,RU,2022-07-06 01:23:53,70.6333,147.9167,53.24,37,100,10.02,overcast clouds
40,Upernavik,GL,2022-07-06 01:23:53,72.7868,-56.1549,38.84,88,89,6.53,overcast clouds
41,Norman Wells,CA,2022-07-06 01:23:53,65.282,-126.8329,84.24,30,75,5.75,smoke
42,Fort Smith,US,2022-07-06 01:19:48,35.3859,-94.3986,96.84,44,40,6.91,scattered clouds
43,Niteroi,BR,2022-07-06 01:23:54,-22.8833,-43.1036,73.02,64,0,5.75,clear sky
44,Yamada,JP,2022-07-06 01:23:54,39.4667,141.95,76.91,76,41,6.98,scattered clouds
45,Ngunguru,NZ,2022-07-06 01:24:54,-35.6167,174.5,60.62,84,100,7.74,light rain
46,San Antonio,US,2022-07-06 01:24:55,29.4241,-98.4936,97.32,43,0,17.27,clear sky
47,Bethel,US,2022-07-06 01:24:55,41.3712,-73.414,74.25,80,100,13.8,overcast clouds
48,Tuatapere,NZ,2022-07-06 01:24:55,-46.1333,167.6833,48.13,69,58,6.46,broken clouds
49,Toyooka,JP,2022-07-06 01:24:55,35.5333,134.8333,86.05,70,75,8.05,broken clouds
50,Solikamsk,RU,2022-07-06 01:24:56,59.6196,56.7729,57.63,89,100,5.01,light rain
51,Sur,OM,2022-07-06 01:24:56,22.5667,59.5289,84.78,74,100,4.83,light rain
52,Bredasdorp,ZA,2022-07-06 01:24:56,-34.5322,20.0403,48.88,88,0,3.36,clear sky
53,Ulaangom,MN,2022-07-06 01:24:57,49.9811,92.0667,66.49,48,58,1.9,broken clouds
54,Ginir,ET,2022-07-06 01:24:57,7.1333,40.7,54.72,82,96,4.79,overcast clouds
55,Hasaki,JP,2022-07-06 01:24:57,35.7333,140.8333,79.29,87,58,20.09,broken clouds
56,Saint George,US,2022-07-06 01:21:48,37.1041,-113.5841,97.63,14,0,18.41,clear sky
57,Torbay,CA,2022-07-06 01:24:58,47.6666,-52.7314,61.57,64,20,21.85,few clouds
58,Marawi,PH,2022-07-06 01:24:58,7.9986,124.2928,77.16,77,54,1.79,broken clouds
59,Touros,BR,2022-07-06 01:24:58,-5.1989,-35.4608,74.5,85,4,12.64,clear sky
60,Okhotsk,RU,2022-07-06 01:24:59,59.3833,143.3,63.05,75,30,4.88,scattered clouds
61,Maningrida,AU,2022-07-06 01:24:59,-12.0667,134.2667,72.68,43,100,14.07,overcast clouds
62,Hobart,AU,2022-07-06 01:23:23,-42.8794,147.3294,50.25,87,75,4.61,broken clouds
63,Lucea,JM,2022-07-06 01:24:59,18.451,-78.1736,84.06,82,33,11.3,scattered clouds
64,Kisaran,ID,2022-07-06 01:25:00,2.9845,99.6158,78.71,87,100,2.66,moderate rain
65,Bara,NG,2022-07-06 01:25:00,10.3744,10.7288,74.23,77,99,6.44,overcast clouds
66,Longyearbyen,SJ,2022-07-06 01:23:06,78.2186,15.6401,42.64,75,75,12.66,broken clouds
67,San Policarpo,PH,2022-07-06 01:25:00,12.1791,125.5072,84.11,71,100,1.59,overcast clouds
68,Sisimiut,GL,2022-07-06 01:25:01,66.9395,-53.6735,46.06,88,91,4.7,overcast clouds
69,Cherskiy,RU,2022-07-06 01:25:01,68.75,161.3,47.16,76,99,17.76,overcast clouds
70,Salalah,OM,2022-07-06 01:25:01,17.0151,54.0924,78.89,100,100,9.22,light intensity drizzle
71,Yellowknife,CA,2022-07-06 01:23:23,62.456,-114.3525,73.92,27,20,8.05,few clouds
72,Tautira,PF,2022-07-06 01:25:02,-17.7333,-149.15,79.09,75,40,18.79,scattered clouds
73,Kodinsk,RU,2022-07-06 01:25:02,58.6881,99.1844,68.13,56,77,1.77,broken clouds
74,Cookeville,US,2022-07-06 01:22:03,36.1628,-85.5016,84.99,81,0,1.01,clear sky
75,Poso,ID,2022-07-06 01:25:03,-1.3959,120.7524,83.61,67,26,2.13,scattered clouds
76,Broome,US,2022-07-06 01:25:03,42.2506,-75.833,75.69,84,40,10.36,scattered clouds
77,East London,ZA,2022-07-06 01:25:03,-33.0153,27.9116,60.84,75,100,10.13,overcast clouds
78,Den Helder,NL,2022-07-06 01:25:04,52.9599,4.7593,58.98,69,100,11.01,overcast clouds
79,Kavieng,PG,2022-07-06 01:23:11,-2.5744,150.7967,84.15,75,100,15.08,overcast clouds
80,Tairua,NZ,2022-07-06 01:23:07,-37.0167,175.85,59.4,72,100,6.91,overcast clouds
81,Tiksi,RU,2022-07-06 01:25:04,71.6872,128.8694,46.38,64,31,7.36,scattered clouds
82,Morehead,US,2022-07-06 01:25:05,37.2711,-87.1764,85.75,79,0,0.0,clear sky
83,Ilulissat,GL,2022-07-06 01:25:05,69.2167,-51.1,46.42,87,100,3.44,overcast clouds
84,Auki,SB,2022-07-06 01:25:05,-8.7676,160.7034,83.1,69,100,4.34,overcast clouds
85,Castro,BR,2022-07-06 01:22:18,-24.7911,-50.0119,55.56,79,100,3.42,overcast clouds
86,Zonguldak,TR,2022-07-06 01:25:06,41.25,31.8333,56.3,90,0,3.31,clear sky
87,Victoria,HK,2022-07-06 01:25:06,22.2855,114.1577,84.38,87,100,8.01,overcast clouds
88,Antalaha,MG,2022-07-06 01:25:06,-14.9003,50.2788,66.4,89,64,7.14,broken clouds
89,Fortuna,US,2022-07-06 01:25:07,40.5982,-124.1573,65.91,85,75,1.01,broken clouds
90,Yar-Sale,RU,2022-07-06 01:25:07,66.8333,70.8333,53.38,78,47,10.07,scattered clouds
91,Constitucion,CL,2022-07-06 01:23:35,-35.3333,-72.4167,49.95,84,63,13.11,broken clouds
92,Batagay-Alyta,RU,2022-07-06 01:26:08,67.8006,130.4114,45.01,92,100,3.24,moderate rain
93,Cabo San Lucas,MX,2022-07-06 01:23:26,22.8909,-109.9124,91.71,54,0,11.5,clear sky
94,Nipawin,CA,2022-07-06 01:26:08,53.3668,-104.0009,62.64,88,100,3.44,overcast clouds
95,Belaya,UA,2022-07-06 01:26:08,49.029,25.7706,64.58,85,100,4.59,overcast clouds
96,Barrow,US,2022-07-06 01:26:09,71.2906,-156.7887,51.82,71,0,5.75,clear sky
97,Mahina,PF,2022-07-06 01:26:09,-17.5065,-149.489,83.97,65,20,13.8,few clouds
98,Brae,GB,2022-07-06 01:26:09,60.3964,-1.353,51.98,97,100,18.48,moderate rain
99,San Juan,AR,2022-07-06 01:25:24,-31.5375,-68.5364,53.73,23,0,1.74,clear sky
100,Hilo,US,2022-07-06 01:21:27,19.7297,-155.09,86.29,68,100,11.5,overcast clouds
101,Iqaluit,CA,2022-07-06 01:26:10,63.7506,-68.5145,44.33,87,100,2.3,light rain
102,Puri,IN,2022-07-06 01:26:10,19.8,85.85,79.32,78,100,2.62,overcast clouds
103,Carlyle,US,2022-07-06 01:26:11,38.6103,-89.3726,91.31,71,1,4.0,clear sky
104,Hithadhoo,MV,2022-07-06 01:26:11,-0.6,73.0833,82.04,73,94,7.09,light rain
105,Taoudenni,ML,2022-07-06 01:26:11,22.6783,-3.9836,99.84,9,62,9.73,broken clouds
106,Caravelas,BR,2022-07-06 01:26:12,-17.7125,-39.2481,69.71,83,0,4.0,clear sky
107,Shizunai,JP,2022-07-06 01:26:12,42.3339,142.3669,66.94,91,98,5.19,overcast clouds
108,Aykhal,RU,2022-07-06 01:26:12,66.0,111.5,63.79,55,96,6.13,overcast clouds
109,Loandjili,CG,2022-07-06 01:26:12,-4.7561,11.8578,69.91,94,100,1.14,overcast clouds
110,Richards Bay,ZA,2022-07-06 01:26:13,-28.783,32.0377,63.86,76,0,10.74,clear sky
111,Tuktoyaktuk,CA,2022-07-06 01:23:21,69.4541,-133.0374,60.8,77,75,5.75,broken clouds
112,Fairbanks,US,2022-07-06 01:23:32,64.8378,-147.7164,82.02,48,20,10.36,smoke
113,Nurobod,UZ,2022-07-06 01:26:13,40.9056,69.8023,69.64,31,1,2.57,clear sky
114,Geraldton,AU,2022-07-06 01:26:14,-28.7667,114.6,59.41,88,75,4.61,broken clouds
115,Paravur,IN,2022-07-06 01:26:14,8.7833,76.7,75.65,90,100,9.33,overcast clouds
116,Avarua,CK,2022-07-06 01:26:14,-21.2078,-159.775,75.25,57,78,5.75,broken clouds
117,Andenes,NO,2022-07-06 01:26:15,69.3143,16.1194,52.93,82,100,18.41,overcast clouds
118,Guerrero Negro,MX,2022-07-06 01:26:15,27.9769,-114.0611,69.06,70,0,20.07,clear sky
119,Qaqortoq,GL,2022-07-06 01:26:15,60.7167,-46.0333,45.07,97,100,1.36,light rain
120,Shaunavon,CA,2022-07-06 01:26:16,49.6501,-108.4181,73.18,58,61,8.23,broken clouds
121,Kautokeino,NO,2022-07-06 01:26:16,69.0125,23.0412,51.67,95,23,13.51,few clouds
122,Svetlogorsk,BY,2022-07-06 01:26:16,52.6333,29.7333,63.39,95,99,5.95,overcast clouds
123,Nome,US,2022-07-06 01:24:28,64.5011,-165.4064,54.16,76,100,9.22,overcast clouds
124,Thompson,CA,2022-07-06 01:24:13,55.7435,-97.8558,71.76,30,75,0.0,broken clouds
125,Vila Praia De Ancora,PT,2022-07-06 01:26:17,41.811,-8.8526,64.54,86,0,3.0,clear sky
126,Hermanus,ZA,2022-07-06 01:22:57,-34.4187,19.2345,53.01,77,0,5.01,clear sky
127,Sao Filipe,CV,2022-07-06 01:26:17,14.8961,-24.4956,74.84,88,29,3.18,scattered clouds
128,Port-Cartier,CA,2022-07-06 01:23:54,50.0334,-66.8654,64.51,55,9,3.18,clear sky
129,Astoria,US,2022-07-06 01:24:11,46.1879,-123.8313,66.47,85,100,1.01,overcast clouds
130,Araouane,ML,2022-07-06 01:26:18,18.9048,-3.5265,96.87,15,0,10.49,clear sky
131,Sao Joao Da Barra,BR,2022-07-06 01:26:18,-21.6403,-41.0511,71.37,86,0,16.62,clear sky
132,Ostrow Mazowiecka,PL,2022-07-06 01:26:18,52.8024,21.8951,60.62,96,100,7.7,overcast clouds
133,Nadym,RU,2022-07-06 01:26:19,65.5333,72.5167,52.92,93,100,8.25,light rain
134,Kuytun,RU,2022-07-06 01:27:19,54.3419,101.5036,65.12,65,0,7.36,clear sky
135,Bud,US,2022-07-06 01:27:19,39.447,-86.1758,93.18,82,73,2.71,broken clouds
136,Luancheng,CN,2022-07-06 01:27:20,37.8792,114.6517,78.96,73,78,10.16,broken clouds
137,Laksham,BD,2022-07-06 01:27:20,23.2472,91.1425,80.82,84,100,10.22,overcast clouds
138,Yako,BF,2022-07-06 01:27:20,12.9667,-2.2667,84.47,53,59,9.78,broken clouds
139,Bambous Virieux,MU,2022-07-06 01:27:21,-20.3428,57.7575,66.45,82,75,11.5,light rain
140,Port Hedland,AU,2022-07-06 01:26:19,-20.3167,118.5667,66.25,18,19,14.97,few clouds
141,San Cristobal,VE,2022-07-06 01:22:50,7.7669,-72.225,73.58,99,29,3.36,scattered clouds
142,Gravdal,NO,2022-07-06 01:27:21,68.1214,13.5031,52.52,79,100,17.05,overcast clouds
143,Cap-Chat,CA,2022-07-06 01:27:21,49.1001,-66.6821,57.2,82,70,8.05,broken clouds
144,Mahebourg,MU,2022-07-06 01:27:22,-20.4081,57.7,66.49,82,75,11.5,broken clouds
145,Bluefields,NI,2022-07-06 01:27:22,12.0137,-83.7635,76.68,94,100,7.96,moderate rain
146,Axim,GH,2022-07-06 01:27:22,4.8699,-2.2405,76.3,88,93,6.29,light rain
147,Guiratinga,BR,2022-07-06 01:27:23,-16.3494,-53.7583,66.31,34,98,3.6,overcast clouds
148,Storslett,NO,2022-07-06 01:27:23,69.7678,21.0247,55.4,88,100,9.22,light rain
149,Puerto Ayora,EC,2022-07-06 01:25:22,-0.7393,-90.3518,71.55,87,81,5.01,broken clouds
150,Nikolskoye,RU,2022-07-06 01:23:34,59.7035,30.7861,57.09,95,0,4.36,clear sky
151,Uribia,CO,2022-07-06 01:27:23,11.7139,-72.266,82.49,63,10,15.75,clear sky
152,Tura,IN,2022-07-06 01:27:24,25.5198,90.2201,77.05,93,78,5.97,light rain
153,Nanortalik,GL,2022-07-06 01:27:24,60.1432,-45.2371,44.96,84,89,10.09,overcast clouds
154,Hamilton,US,2022-07-06 01:27:24,39.1834,-84.5333,85.05,77,0,10.36,clear sky
155,Rapid Valley,US,2022-07-06 01:27:25,44.0625,-103.1463,81.77,57,0,11.5,clear sky
156,Rosita,NI,2022-07-06 01:27:25,13.9268,-84.4032,74.01,99,100,2.46,overcast clouds
157,Macultepec,MX,2022-07-06 01:27:25,18.1667,-92.8333,86.13,70,75,5.75,broken clouds
158,Rawson,AR,2022-07-06 01:27:26,-43.3002,-65.1023,48.81,43,100,17.54,overcast clouds
159,Alice Springs,AU,2022-07-06 01:27:26,-23.7,133.8833,53.15,37,0,11.5,clear sky
160,Novosibirsk,RU,2022-07-06 01:26:03,55.0411,82.9344,60.1,100,100,6.71,light intensity shower rain
161,Meulaboh,ID,2022-07-06 01:27:26,4.1363,96.1285,78.46,78,81,3.24,broken clouds
162,Comodoro Rivadavia,AR,2022-07-06 01:23:20,-45.8667,-67.5,44.46,49,0,21.85,clear sky
163,Grimshaw,CA,2022-07-06 01:27:27,56.1834,-117.6027,69.42,60,75,4.61,light rain
164,Sapa,PH,2022-07-06 01:27:27,5.1544,120.3241,82.04,81,90,7.05,overcast clouds
165,Coahuayana,MX,2022-07-06 01:22:38,18.7333,-103.6833,80.62,88,100,5.08,overcast clouds
166,Bluff,NZ,2022-07-06 01:22:37,-46.6,168.3333,48.79,70,63,19.08,broken clouds
167,Pevek,RU,2022-07-06 01:25:38,69.7008,170.3133,45.52,70,100,12.24,overcast clouds
168,Linfen,CN,2022-07-06 01:27:28,36.0889,111.5189,84.65,47,0,2.06,clear sky
169,North Bend,US,2022-07-06 01:23:34,43.4065,-124.2243,66.92,100,100,5.75,mist
170,Kalaleh,IR,2022-07-06 01:27:28,37.3807,55.4916,62.96,61,0,2.82,clear sky
171,Loralai,PK,2022-07-06 01:27:28,30.3705,68.598,78.78,64,26,1.23,heavy intensity rain
172,Atherton,GB,2022-07-06 01:27:29,53.5237,-2.4935,61.21,94,100,5.99,overcast clouds
173,Gumdag,TM,2022-07-06 01:27:29,39.2061,54.5906,72.95,41,0,4.92,clear sky
174,Anadyr,RU,2022-07-06 01:27:29,64.75,177.4833,52.3,81,75,8.95,broken clouds
175,Ribeira Grande,PT,2022-07-06 01:27:30,38.5167,-28.7,66.69,80,100,8.99,overcast clouds
176,Kysyl-Syr,RU,2022-07-06 01:27:30,63.8986,122.7617,52.56,94,100,8.14,overcast clouds
177,Kahului,US,2022-07-06 01:27:30,20.8947,-156.47,87.82,42,20,25.32,few clouds
178,Provideniya,RU,2022-07-06 01:22:50,64.3833,-173.3,48.36,87,100,11.18,overcast clouds
179,Vaini,TO,2022-07-06 01:23:06,-21.2,-175.2,77.16,65,40,10.36,scattered clouds
180,Pindwara,IN,2022-07-06 01:27:31,24.8,73.0667,83.25,74,16,2.64,few clouds
181,Tiznit,MA,2022-07-06 01:27:31,29.5833,-9.5,72.41,51,0,2.01,clear sky
182,Grand Forks,US,2022-07-06 01:28:17,47.9417,-97.4337,78.53,61,20,11.5,few clouds
183,Erzincan,TR,2022-07-06 01:28:32,39.75,39.5,54.7,82,0,0.0,clear sky
184,Chuy,UY,2022-07-06 01:25:44,-33.6971,-53.4616,54.95,88,100,7.58,overcast clouds
185,Lagoa,PT,2022-07-06 01:28:32,39.05,-27.9833,65.88,79,100,10.56,overcast clouds
186,Lorengau,PG,2022-07-06 01:28:32,-2.0226,147.2712,83.73,74,80,10.11,broken clouds
187,Barao De Melgaco,BR,2022-07-06 01:28:33,-16.1944,-55.9675,71.38,34,91,2.91,overcast clouds
188,Ulladulla,AU,2022-07-06 01:26:30,-35.35,150.4667,56.3,83,100,8.81,overcast clouds
189,Hue,VN,2022-07-06 01:28:33,16.4667,107.6,87.91,70,20,2.3,few clouds
190,Belyy Yar,RU,2022-07-06 01:28:34,53.6039,91.3903,67.89,60,0,8.95,clear sky
191,Lasa,IT,2022-07-06 01:28:34,46.6166,10.7002,58.37,90,30,5.66,scattered clouds
192,Coquimbo,CL,2022-07-06 01:28:34,-29.9533,-71.3436,53.33,87,0,2.3,clear sky
193,Yulara,AU,2022-07-06 01:28:35,-25.2406,130.9889,51.75,28,0,6.58,clear sky
194,Bandarbeyla,SO,2022-07-06 01:28:35,9.4942,50.8122,77.09,71,52,32.59,broken clouds
195,Alofi,NU,2022-07-06 01:23:55,-19.0595,-169.9187,78.69,61,75,18.41,broken clouds
196,Mehamn,NO,2022-07-06 01:28:35,71.0357,27.8492,60.75,82,23,8.05,few clouds
197,Sinnamary,GF,2022-07-06 01:28:36,5.3833,-52.95,77.36,86,100,6.93,overcast clouds
198,Sitka,US,2022-07-06 01:28:36,57.0531,-135.33,57.09,82,40,4.61,scattered clouds
199,Amurzet,RU,2022-07-06 01:28:36,47.6967,131.0981,82.26,71,40,6.82,scattered clouds
200,Marsh Harbour,BS,2022-07-06 01:28:37,26.5412,-77.0636,82.31,77,15,12.3,few clouds
201,Lewiston,US,2022-07-06 01:26:09,44.1003,-70.2148,66.54,92,75,8.05,moderate rain
202,Perelyub,RU,2022-07-06 01:28:37,51.8667,50.3667,52.23,87,5,7.74,clear sky
203,Husavik,IS,2022-07-06 01:28:37,66.0449,-17.3389,41.36,87,49,3.13,scattered clouds
204,Mae Hong Son,TH,2022-07-06 01:28:38,19.3003,97.9685,80.74,83,75,0.0,broken clouds
205,Wasilla,US,2022-07-06 01:25:38,61.5814,-149.4394,79.48,49,0,8.05,clear sky
206,Hovd,MN,2022-07-06 01:24:18,48.0056,91.6419,65.52,38,100,8.57,overcast clouds
207,Tuni,IN,2022-07-06 01:28:38,17.35,82.55,77.59,93,100,9.91,overcast clouds
208,Juneau,US,2022-07-06 01:28:38,58.3019,-134.4197,75.2,100,40,9.22,scattered clouds
209,Port Elizabeth,ZA,2022-07-06 01:28:39,-33.918,25.5701,58.32,97,0,8.05,clear sky
210,Bokoro,TD,2022-07-06 01:28:39,12.3807,17.0568,74.89,86,100,18.01,moderate rain
211,Progreso,MX,2022-07-06 01:28:39,21.2833,-89.6667,80.71,85,100,8.57,overcast clouds
212,Labuhan,ID,2022-07-06 01:25:19,-6.8844,112.2051,80.2,81,25,7.29,scattered clouds
213,Talnakh,RU,2022-07-06 01:28:40,69.4865,88.3972,58.21,50,100,4.5,overcast clouds
214,Rio Grande,BR,2022-07-06 01:26:14,-32.035,-52.0986,54.95,96,100,1.66,overcast clouds
215,Valdivia,CL,2022-07-06 01:28:40,-39.8142,-73.2459,48.29,90,100,10.65,moderate rain
216,Pleshanovo,RU,2022-07-06 01:28:40,52.8333,53.4833,51.37,89,89,4.94,overcast clouds
217,Airai,TL,2022-07-06 01:28:41,-8.9266,125.4092,61.88,68,99,2.59,overcast clouds
218,Tongren,CN,2022-07-06 01:28:41,27.7172,109.1853,83.17,83,3,1.83,clear sky
219,Severo-Kurilsk,RU,2022-07-06 01:28:41,50.6789,156.125,52.93,81,21,6.51,few clouds
220,Mataram,ID,2022-07-06 01:28:42,-8.5833,116.1167,81.41,72,49,11.43,scattered clouds
221,Sao Jose Da Coroa Grande,BR,2022-07-06 01:28:42,-8.8978,-35.1478,74.59,86,3,11.7,clear sky
222,Port Blair,IN,2022-07-06 01:28:42,11.6667,92.75,81.12,83,100,8.81,overcast clouds
223,Kapaa,US,2022-07-06 01:28:43,22.0752,-159.319,82.72,70,100,16.11,overcast clouds
224,Ahipara,NZ,2022-07-06 01:28:43,-35.1667,173.1667,59.86,94,100,5.66,moderate rain
225,Saldanha,ZA,2022-07-06 01:28:43,-33.0117,17.9442,42.85,86,0,7.63,clear sky
226,Meiganga,CM,2022-07-06 01:29:44,6.5167,14.3,65.57,96,99,1.95,overcast clouds
227,Puerto Del Rosario,ES,2022-07-06 01:29:44,28.5004,-13.8627,69.55,78,75,18.41,broken clouds
228,Mamallapuram,IN,2022-07-06 01:29:44,12.6264,80.1722,80.06,67,100,10.27,moderate rain
229,Denpasar,ID,2022-07-06 01:29:45,-8.65,115.2167,80.26,88,40,18.41,scattered clouds
230,Nohar,IN,2022-07-06 01:29:45,29.1833,74.7667,92.82,53,72,11.1,broken clouds
231,Phanat Nikhom,TH,2022-07-06 01:29:45,13.4458,101.1844,87.48,82,100,3.62,overcast clouds
232,Naze,JP,2022-07-06 01:29:45,28.3667,129.4833,81.52,81,30,11.41,scattered clouds
233,Staritsa,RU,2022-07-06 01:29:46,56.5075,34.9354,59.25,90,90,2.98,overcast clouds
234,Kruisfontein,ZA,2022-07-06 01:29:46,-34.0033,24.7314,54.88,92,100,7.02,overcast clouds
235,Myanaung,MM,2022-07-06 01:29:46,18.2833,95.3167,80.01,85,99,5.28,overcast clouds
236,Nizhniy Odes,RU,2022-07-06 01:29:47,63.6445,54.856,64.71,70,89,1.01,overcast clouds
237,Chon Daen,TH,2022-07-06 01:29:47,16.1895,100.8596,80.11,84,100,0.85,overcast clouds
238,Paamiut,GL,2022-07-06 01:29:47,61.994,-49.6678,42.08,96,100,4.12,light rain
239,Ostrovnoy,RU,2022-07-06 01:29:48,68.0531,39.5131,62.17,82,100,15.7,overcast clouds
240,Hanyang,CN,2022-07-06 01:29:48,32.1371,105.5126,79.86,54,0,3.76,clear sky
241,San Patricio,US,2022-07-06 01:29:48,28.017,-97.5169,87.89,65,100,15.12,overcast clouds
242,Aginskoye,RU,2022-07-06 01:29:49,51.1,114.53,57.16,95,100,6.69,overcast clouds
243,Narsaq,GL,2022-07-06 01:29:49,60.9167,-46.05,50.22,96,100,3.04,light rain
244,Port Lincoln,AU,2022-07-06 01:29:49,-34.7333,135.8667,55.71,63,2,8.52,clear sky
245,Bodmin,GB,2022-07-06 01:29:50,50.4715,-4.7243,60.76,94,75,6.91,broken clouds
246,Zhob,PK,2022-07-06 01:29:50,31.3411,69.4481,81.46,58,67,1.54,broken clouds
247,Bubaque,GW,2022-07-06 01:29:50,11.2833,-15.8333,80.42,76,100,12.44,light rain
248,Poronaysk,RU,2022-07-06 01:29:51,49.2167,143.1167,59.13,80,13,9.75,few clouds
249,Plettenberg Bay,ZA,2022-07-06 01:29:51,-34.0527,23.3716,55.96,86,70,4.05,broken clouds
250,Hainburg,DE,2022-07-06 01:29:51,50.0716,8.9524,63.84,78,5,4.12,clear sky
251,Ixtapa,MX,2022-07-06 01:29:51,20.7,-105.2,81.23,94,100,5.75,overcast clouds
252,Viljoenskroon,ZA,2022-07-06 01:29:52,-27.2084,26.9485,52.84,52,82,7.23,broken clouds
253,Acushnet,US,2022-07-06 01:29:52,41.6807,-70.9078,71.42,77,75,12.66,broken clouds
254,Northam,GB,2022-07-06 01:29:52,51.0333,-4.2167,58.6,95,45,4.03,scattered clouds
255,Dingle,PH,2022-07-06 01:29:53,10.9995,122.6711,82.54,78,100,1.99,overcast clouds
256,Hambantota,LK,2022-07-06 01:25:45,6.1241,81.1185,77.34,100,20,5.75,few clouds
257,Cidreira,BR,2022-07-06 01:29:53,-30.1811,-50.2056,61.93,96,100,5.46,overcast clouds
258,Kurilsk,RU,2022-07-06 01:29:53,45.2333,147.8833,58.3,74,65,3.06,broken clouds
259,Nouadhibou,MR,2022-07-06 01:29:54,20.931,-17.0347,71.58,78,0,21.85,clear sky
260,Marsa Matruh,EG,2022-07-06 01:29:54,31.3525,27.2453,71.8,83,0,0.0,clear sky
261,Vila Franca Do Campo,PT,2022-07-06 01:29:54,37.7167,-25.4333,67.19,79,99,6.89,overcast clouds
262,Great Yarmouth,GB,2022-07-06 01:29:55,52.6083,1.7305,56.95,74,100,1.43,overcast clouds
263,Vila Velha,BR,2022-07-06 01:29:55,-20.3297,-40.2925,73.35,89,20,5.75,few clouds
264,Ancud,CL,2022-07-06 01:29:55,-41.8697,-73.8203,45.23,87,100,22.7,light rain
265,Manggar,ID,2022-07-06 01:29:55,-2.8833,108.2667,82.99,77,87,4.12,overcast clouds
266,Sola,VU,2022-07-06 01:29:56,-13.8833,167.55,80.83,78,15,19.17,few clouds
267,Acapulco,MX,2022-07-06 01:29:56,16.8634,-99.8901,82.22,78,100,0.0,overcast clouds
268,Bhimavaram,IN,2022-07-06 01:29:56,16.5333,81.5333,77.43,87,98,10.16,overcast clouds
269,Hualmay,PE,2022-07-06 01:29:57,-11.0964,-77.6139,61.65,84,50,7.83,scattered clouds
270,Baykalsk,RU,2022-07-06 01:29:57,51.5058,104.1469,59.92,64,25,2.64,scattered clouds
271,Barcelona,ES,2022-07-06 01:29:57,41.3888,2.159,78.48,71,20,6.91,few clouds
272,Saint-Francois,FR,2022-07-06 01:30:58,46.4154,3.9054,54.84,100,0,2.3,clear sky
273,Urengoy,RU,2022-07-06 01:30:58,65.9667,78.3667,53.94,79,97,8.81,light rain
274,Dongobesh,TZ,2022-07-06 01:30:58,-4.0667,35.3833,47.01,92,93,4.29,overcast clouds
275,Olafsvik,IS,2022-07-06 01:30:59,64.8945,-23.7142,50.77,72,79,11.74,broken clouds
276,Champerico,GT,2022-07-06 01:30:59,14.3,-91.9167,81.79,78,45,6.6,scattered clouds
277,Joaima,BR,2022-07-06 01:30:59,-16.6542,-41.0306,62.33,96,0,1.77,clear sky
278,Deputatskiy,RU,2022-07-06 01:31:00,69.3,139.9,48.76,59,100,7.05,overcast clouds
279,Hansi,IN,2022-07-06 01:31:00,29.1,75.9667,94.03,46,64,12.39,broken clouds
280,Sakakah,SA,2022-07-06 01:31:00,29.9697,40.2064,81.97,31,0,14.88,clear sky
281,Wawa,NG,2022-07-06 01:31:01,9.9022,4.4192,73.56,90,57,5.14,broken clouds
282,Beira,MZ,2022-07-06 01:31:01,-19.8436,34.8389,62.73,91,0,4.85,clear sky
283,Saint-Philippe,RE,2022-07-06 01:31:01,-21.3585,55.7679,67.59,78,57,10.69,broken clouds
284,Xai-Xai,MZ,2022-07-06 01:31:02,-25.0519,33.6442,59.43,93,0,6.22,clear sky
285,Ouidah,BJ,2022-07-06 01:31:02,6.3631,2.0851,76.86,87,62,6.38,broken clouds
286,Zambezi,ZM,2022-07-06 01:31:02,-13.5432,23.1047,51.17,66,6,4.68,clear sky
287,Labytnangi,RU,2022-07-06 01:31:03,66.6572,66.4183,60.06,85,100,4.38,overcast clouds
288,Mugur-Aksy,RU,2022-07-06 01:31:03,50.35,90.5,54.28,51,27,3.4,scattered clouds
289,Mar Del Plata,AR,2022-07-06 01:31:03,-38.0023,-57.5575,46.09,71,0,2.3,clear sky
290,San Jose,US,2022-07-06 01:26:10,37.3394,-121.895,79.84,59,20,16.11,few clouds
291,Kolokani,ML,2022-07-06 01:31:04,13.5728,-8.0339,77.65,68,98,11.86,overcast clouds
292,Rocha,UY,2022-07-06 01:31:04,-34.4833,-54.3333,46.72,96,5,2.3,clear sky
293,General Pico,AR,2022-07-06 01:29:23,-35.6566,-63.7568,46.94,55,0,9.37,clear sky
294,Arman,RU,2022-07-06 01:31:05,59.7,150.1667,73.02,74,100,5.86,overcast clouds
295,Ust-Ilimsk,RU,2022-07-06 01:31:05,58.0006,102.6619,75.33,41,25,2.8,scattered clouds
296,Leatherhead,GB,2022-07-06 01:31:05,51.2959,-0.3259,60.22,77,0,3.44,clear sky
297,Oltu,TR,2022-07-06 01:31:06,40.5498,42.0013,52.56,72,0,3.18,clear sky
298,Kobayashi,JP,2022-07-06 01:31:06,31.9833,130.9833,83.7,65,100,5.61,overcast clouds
299,Regeneracao,BR,2022-07-06 01:31:07,-6.2378,-42.6883,72.1,58,0,2.98,clear sky
300,Kousseri,CM,2022-07-06 01:31:07,12.0769,15.0306,77.99,74,100,12.1,overcast clouds
301,Zhicheng,CN,2022-07-06 01:31:07,30.2956,111.5047,83.77,79,83,3.76,broken clouds
302,Puerto Madero,MX,2022-07-06 01:31:08,14.7208,-92.4215,84.4,89,75,5.75,broken clouds
303,Ewa Beach,US,2022-07-06 01:28:58,21.3156,-158.0072,84.15,61,75,20.71,broken clouds
304,Thinadhoo,MV,2022-07-06 01:31:08,0.5333,72.9333,82.22,72,100,5.5,overcast clouds
305,Long,TH,2022-07-06 01:31:08,18.0761,99.8326,84.52,87,100,2.17,overcast clouds
306,Pangkalanbuun,ID,2022-07-06 01:31:09,-2.6833,111.6167,83.25,68,100,0.11,overcast clouds
307,Adrar,MR,2022-07-06 01:31:09,20.5022,-10.0711,93.09,18,35,12.03,scattered clouds
308,Laguna,US,2022-07-06 01:26:38,38.421,-121.4238,86.45,48,0,20.71,clear sky
309,Flinders,AU,2022-07-06 01:31:10,-34.5833,150.8552,60.19,88,100,1.99,overcast clouds
310,Sassandra,CI,2022-07-06 01:31:10,4.95,-6.0833,75.36,86,90,5.84,overcast clouds
311,Kuusamo,FI,2022-07-06 01:31:10,65.9667,29.1833,55.44,94,20,6.91,few clouds
312,Teguldet,RU,2022-07-06 01:31:11,57.3064,88.1667,65.1,67,96,4.94,overcast clouds
313,Tual,ID,2022-07-06 01:31:11,-5.6667,132.75,78.01,81,100,20.54,overcast clouds
314,Esperance,AU,2022-07-06 01:31:11,-33.8667,121.9,56.25,80,100,10.07,overcast clouds
315,Rumuruti,KE,2022-07-06 01:30:56,0.267,36.5389,53.01,89,55,1.79,broken clouds
316,Kanye,BW,2022-07-06 01:32:12,-24.9667,25.3327,51.85,57,0,6.71,clear sky
317,Kangalassy,RU,2022-07-06 01:32:12,62.3464,129.9628,87.73,43,12,12.91,few clouds
318,Kaeo,NZ,2022-07-06 01:32:12,-35.1,173.7833,61.07,91,100,2.75,heavy intensity rain
319,Suntar,RU,2022-07-06 01:32:13,62.1444,117.6319,57.2,96,100,2.53,overcast clouds
320,Poltsamaa,EE,2022-07-06 01:32:13,58.6525,25.9706,51.62,97,37,5.95,scattered clouds
321,Verkhnevilyuysk,RU,2022-07-06 01:32:13,63.4453,120.3167,53.64,94,100,6.96,overcast clouds
322,Berdigestyakh,RU,2022-07-06 01:32:14,62.0989,126.6992,70.9,85,82,9.44,broken clouds
323,Sidi Ali,DZ,2022-07-06 01:32:14,36.0998,0.4206,76.24,72,100,7.54,overcast clouds
324,Baracoa,CU,2022-07-06 01:32:14,20.3467,-74.4958,79.99,82,41,11.1,scattered clouds
325,Graaff-Reinet,ZA,2022-07-06 01:32:14,-32.2522,24.5308,48.7,93,2,2.08,clear sky
326,Kpandae,GH,2022-07-06 01:32:15,8.4689,-0.0113,72.37,92,100,4.47,overcast clouds
327,Lianzhou,CN,2022-07-06 01:32:15,24.7811,112.3825,81.81,90,100,3.2,moderate rain
328,Matara,LK,2022-07-06 01:32:15,5.9485,80.5353,80.11,83,100,9.84,overcast clouds
329,Sinjar,IQ,2022-07-06 01:32:16,36.3209,41.8754,82.56,20,0,1.92,clear sky
330,Adre,TD,2022-07-06 01:32:16,13.4667,22.2,73.76,68,11,5.01,few clouds
331,Itarema,BR,2022-07-06 01:32:16,-2.9248,-39.9167,74.34,77,85,8.59,overcast clouds
332,Pangnirtung,CA,2022-07-06 01:32:17,66.1451,-65.7125,43.68,70,100,3.24,overcast clouds
333,Qesarya,IL,2022-07-06 01:32:17,32.5189,34.9046,74.97,79,0,6.04,clear sky
334,Mecca,SA,2022-07-06 01:31:59,21.4267,39.8261,82.58,33,10,3.98,clear sky
335,Waycross,US,2022-07-06 01:28:07,31.2136,-82.354,82.65,89,66,4.63,broken clouds
336,Ewo,CG,2022-07-06 01:32:18,-0.8725,14.8206,74.97,70,76,3.36,broken clouds
337,Mitzic,GA,2022-07-06 01:32:18,0.7821,11.549,66.42,97,16,3.0,few clouds
338,Painesville,US,2022-07-06 01:32:18,41.7245,-81.2457,81.48,80,40,5.75,scattered clouds
339,Tarakan,ID,2022-07-06 01:32:18,3.3,117.6333,81.9,78,20,3.44,few clouds
340,Amboasary,MG,2022-07-06 01:32:19,-25.0333,46.3833,62.35,88,0,2.39,clear sky
341,Umm Lajj,SA,2022-07-06 01:32:19,25.0213,37.2685,85.39,45,6,7.23,clear sky
342,Sechura,PE,2022-07-06 01:32:19,-5.5569,-80.8222,63.77,77,10,15.19,clear sky
343,Warrnambool,AU,2022-07-06 01:32:20,-38.3833,142.4833,52.81,67,0,14.72,clear sky
344,Mwinilunga,ZM,2022-07-06 01:32:20,-11.7358,24.4293,51.37,63,3,2.66,clear sky
345,Funadhoo,MV,2022-07-06 01:32:20,6.15,73.2667,82.13,83,100,19.06,overcast clouds
346,Te Anau,NZ,2022-07-06 01:32:21,-45.4167,167.7167,44.82,69,2,0.38,clear sky
347,Isangel,VU,2022-07-06 01:32:21,-19.55,169.2667,84.31,70,75,5.75,broken clouds
348,Balkanabat,TM,2022-07-06 01:32:21,39.5108,54.3671,76.51,36,0,7.29,clear sky
349,Paita,PE,2022-07-06 01:32:22,-5.0892,-81.1144,63.7,81,9,15.17,clear sky
350,Nador,MA,2022-07-06 01:32:22,35.174,-2.9287,73.65,73,0,9.22,clear sky
351,Warsaw,PL,2022-07-06 01:32:23,52.2298,21.0118,63.64,94,100,5.75,light rain
352,Ojinaga,MX,2022-07-06 01:32:23,29.5667,-104.4167,79.75,69,75,17.27,broken clouds
353,Cayenne,GF,2022-07-06 01:32:23,4.9333,-52.3333,80.1,1,0,1.01,clear sky
354,Guaymas,MX,2022-07-06 01:32:23,27.9333,-110.9,95.88,38,0,11.5,clear sky
355,Ihosy,MG,2022-07-06 01:27:30,-22.4,46.1167,58.12,87,86,6.69,overcast clouds
356,Kloulklubed,PW,2022-07-06 01:32:24,7.0419,134.2556,81.1,68,45,3.89,scattered clouds
357,Kuala Sungai Baru,MY,2022-07-06 01:32:24,2.3594,102.0353,80.64,84,93,7.47,overcast clouds
358,Sandnessjoen,NO,2022-07-06 01:32:24,66.0217,12.6316,50.52,92,75,17.27,light rain
359,Angoche,MZ,2022-07-06 01:32:25,-16.2325,39.9086,69.62,77,0,7.85,clear sky
360,Erdenet,MN,2022-07-06 01:32:25,49.0333,104.0833,61.65,57,100,4.56,overcast clouds
361,Coihaique,CL,2022-07-06 01:28:04,-45.5752,-72.0662,34.41,93,0,4.61,clear sky
362,Whyalla,AU,2022-07-06 01:31:03,-33.0333,137.5833,54.93,49,0,5.82,clear sky
363,Salinas,US,2022-07-06 01:29:55,36.6777,-121.6555,78.57,66,0,11.5,clear sky
364,Folldal,NO,2022-07-06 01:33:26,62.1325,9.9968,40.53,80,27,4.23,scattered clouds
365,Kidal,ML,2022-07-06 01:33:26,18.4411,1.4078,89.67,28,45,10.94,scattered clouds
366,Lillooet,CA,2022-07-06 01:30:09,50.6856,-121.942,72.81,46,100,1.81,overcast clouds
367,Nampa,US,2022-07-06 01:33:26,43.5407,-116.5635,91.06,25,0,8.05,clear sky
368,Tahta,EG,2022-07-06 01:33:27,26.7693,31.5021,85.14,23,2,5.03,clear sky
369,Luanda,AO,2022-07-06 01:32:27,-8.8368,13.2343,64.92,93,76,6.62,broken clouds
370,Necochea,AR,2022-07-06 01:32:28,-38.5473,-58.7368,45.75,49,100,9.78,overcast clouds
371,Bathsheba,BB,2022-07-06 01:33:27,13.2167,-59.5167,81.21,96,40,18.41,scattered clouds
372,Vardo,NO,2022-07-06 01:33:27,70.3705,31.1107,49.98,100,75,4.61,mist
373,Dunedin,NZ,2022-07-06 01:33:28,-45.8742,170.5036,51.8,54,26,3.0,scattered clouds
374,Pinsk,BY,2022-07-06 01:33:28,52.1229,26.0951,62.55,96,100,7.76,overcast clouds
375,Rafaela,AR,2022-07-06 01:33:28,-31.2503,-61.4867,47.98,72,0,1.01,clear sky
376,Margate,GB,2022-07-06 01:33:29,51.3813,1.3862,60.31,83,34,1.99,scattered clouds
377,Banda Aceh,ID,2022-07-06 01:33:29,5.5577,95.3222,84.7,66,72,12.35,broken clouds
378,Perur,IN,2022-07-06 01:33:29,10.9667,76.9,71.87,91,100,11.79,overcast clouds
379,Kirakira,SB,2022-07-06 01:33:30,-10.4544,161.9205,84.25,72,100,9.73,overcast clouds
380,Tyumentsevo,RU,2022-07-06 01:33:30,53.3224,81.498,59.95,93,100,11.74,overcast clouds
381,De Aar,ZA,2022-07-06 01:33:30,-30.6497,24.0123,44.62,86,0,2.33,clear sky
382,Korla,CN,2022-07-06 01:33:30,41.7597,86.1469,86.56,20,0,24.52,clear sky
383,Faya,SA,2022-07-06 01:33:31,18.3851,42.4509,66.31,33,77,7.29,broken clouds
384,Cernesti,RO,2022-07-06 01:33:31,47.5167,23.75,68.5,77,98,3.22,overcast clouds
385,Sagua La Grande,CU,2022-07-06 01:33:31,22.8067,-80.0756,76.19,88,23,8.75,few clouds
386,Metro,ID,2022-07-06 01:33:32,-5.1131,105.3067,82.09,78,66,4.88,broken clouds
387,Huambo,AO,2022-07-06 01:33:32,-12.7761,15.7392,52.57,47,5,2.93,clear sky
388,Khatassy,RU,2022-07-06 01:33:32,61.9036,129.6383,87.78,41,9,13.65,clear sky
389,Yerbogachen,RU,2022-07-06 01:33:33,61.2767,108.0108,65.44,65,100,6.06,overcast clouds
390,Teya,RU,2022-07-06 01:33:33,60.3778,92.6267,61.61,67,100,2.75,overcast clouds
391,Cockburn Town,TC,2022-07-06 01:33:33,21.4612,-71.1419,81.54,74,6,19.95,clear sky
392,Karratha,AU,2022-07-06 01:33:34,-20.7377,116.8463,66.07,22,10,19.04,clear sky
393,Huarmey,PE,2022-07-06 01:33:34,-10.0681,-78.1522,62.17,86,47,8.55,scattered clouds
394,Waddan,LY,2022-07-06 01:33:34,29.1614,16.139,77.45,52,0,3.8,clear sky
395,Puerto Leguizamo,CO,2022-07-06 01:33:35,-0.1934,-74.7819,68.14,99,50,2.24,scattered clouds
396,Wanning,CN,2022-07-06 01:33:35,18.8003,110.3967,86.36,72,100,8.37,overcast clouds
397,Mandalgovi,MN,2022-07-06 01:33:35,45.7625,106.2708,66.49,35,64,3.22,broken clouds
398,Batticaloa,LK,2022-07-06 01:33:35,7.7102,81.6924,83.5,58,100,9.86,overcast clouds
399,Oyama,JP,2022-07-06 01:30:19,36.3,139.8,80.42,57,82,7.38,broken clouds
400,Kamenka,RU,2022-07-06 01:33:36,51.3223,42.7678,56.03,79,99,5.01,overcast clouds
401,Amga,RU,2022-07-06 01:33:36,60.8953,131.9608,92.1,38,0,10.38,clear sky
402,Kyshtovka,RU,2022-07-06 01:33:36,56.555,76.6271,61.27,91,73,10.51,broken clouds
403,Manaquiri,BR,2022-07-06 01:33:37,-3.3167,-60.35,79.25,88,51,2.39,broken clouds
404,Lesogorsk,RU,2022-07-06 01:33:37,56.0458,99.5136,73.71,45,0,7.23,clear sky
405,Itacarambi,BR,2022-07-06 01:33:37,-15.1022,-44.0919,65.41,56,0,3.13,clear sky
406,Poya,NC,2022-07-06 01:33:38,-21.35,165.15,79.84,64,100,6.96,overcast clouds
407,Chuguyevka,RU,2022-07-06 01:33:38,44.1653,133.8633,84.85,58,55,2.57,broken clouds
408,Vilhena,BR,2022-07-06 01:33:38,-12.7406,-60.1458,67.6,46,45,3.38,scattered clouds
409,Bonavista,CA,2022-07-06 01:33:39,48.6499,-53.1147,56.07,68,22,14.92,few clouds
410,Mentougou,CN,2022-07-06 01:34:39,39.9392,116.0917,76.14,63,100,2.84,overcast clouds
411,Aripuana,BR,2022-07-06 01:34:39,-9.1667,-60.6333,74.59,59,8,2.33,clear sky
412,Rognan,NO,2022-07-06 01:34:40,67.0953,15.3878,51.94,80,100,1.48,overcast clouds
413,Sangar,RU,2022-07-06 01:34:40,63.9242,127.4739,64.92,99,100,5.41,light rain
414,Arlit,NE,2022-07-06 01:34:40,18.7369,7.3853,86.31,37,91,4.09,overcast clouds
415,Shingu,JP,2022-07-06 01:34:41,33.7333,135.9833,82.33,86,25,6.78,scattered clouds
416,Sayyan,YE,2022-07-06 01:34:41,15.1718,44.3244,62.58,45,41,4.83,scattered clouds
417,Derzhavinsk,KZ,2022-07-06 01:34:41,51.1,66.3167,56.25,75,82,8.37,broken clouds
418,Honningsvag,NO,2022-07-06 01:34:42,70.9821,25.9704,60.55,77,8,9.22,clear sky
419,Miranda,CO,2022-07-06 01:30:09,3.2499,-76.2281,71.73,90,23,5.79,few clouds
420,Carauari,BR,2022-07-06 01:34:42,-4.8828,-66.8958,73.67,95,83,1.72,broken clouds
421,Braganca,BR,2022-07-06 01:34:42,-1.0536,-46.7656,71.11,98,3,2.1,clear sky
422,Saquarema,BR,2022-07-06 01:34:43,-22.92,-42.5103,67.44,71,0,9.17,clear sky
423,Namibe,AO,2022-07-06 01:34:43,-15.1961,12.1522,65.8,65,0,7.56,clear sky
424,Westport,US,2022-07-06 01:30:13,41.1415,-73.3579,75.02,87,100,18.41,overcast clouds
425,Kimbe,PG,2022-07-06 01:34:43,-5.5502,150.1429,86.88,66,99,4.07,light rain
426,Port Hardy,CA,2022-07-06 01:34:44,50.6996,-127.4199,59.18,82,75,8.05,broken clouds
427,Grimbergen,BE,2022-07-06 01:34:44,50.9333,4.3667,56.98,88,0,3.44,clear sky
428,Yauya,PE,2022-07-06 01:34:44,-8.9833,-77.3,46.09,78,51,5.77,broken clouds
429,Kourou,GF,2022-07-06 01:34:45,5.1552,-52.6478,80.11,89,100,6.33,overcast clouds
430,Seddon,AU,2022-07-06 01:34:45,-37.8068,144.8916,59.11,70,0,10.36,clear sky
431,Estelle,US,2022-07-06 01:34:34,29.8458,-90.1067,79.0,83,75,0.0,broken clouds
432,Kaitangata,NZ,2022-07-06 01:34:45,-46.2817,169.8464,49.46,69,49,12.57,scattered clouds
433,Wah,PK,2022-07-06 01:34:46,33.798,72.6957,89.44,57,87,6.76,overcast clouds
434,Nogales,MX,2022-07-06 01:33:46,31.3086,-110.9422,88.32,25,0,10.36,clear sky
435,Tutoia,BR,2022-07-06 01:34:46,-2.7619,-42.2744,75.22,81,81,6.89,broken clouds
436,Varhaug,NO,2022-07-06 01:34:46,58.6147,5.6457,54.95,74,99,17.45,overcast clouds
437,Yenagoa,NG,2022-07-06 01:34:47,4.9247,6.2642,73.04,97,31,1.66,scattered clouds
438,Berbera,SO,2022-07-06 01:34:47,10.4396,45.0143,89.49,41,95,22.77,overcast clouds
439,Klaksvik,FO,2022-07-06 01:34:47,62.2266,-6.589,50.92,97,100,2.3,light rain
440,Malakal,SS,2022-07-06 01:30:12,9.5334,31.6605,74.34,75,74,3.67,broken clouds
441,Lisakovsk,KZ,2022-07-06 01:34:48,52.5369,62.4936,54.1,69,52,7.9,broken clouds
442,Maldonado,UY,2022-07-06 01:34:27,-34.6667,-54.9167,47.59,96,3,4.79,clear sky
443,Georgetown,MY,2022-07-06 01:34:48,5.4112,100.3354,85.95,83,20,3.44,few clouds
444,Jasper,US,2022-07-06 01:34:48,37.2001,-94.3502,93.25,46,40,9.22,scattered clouds
445,Salinopolis,BR,2022-07-06 01:34:49,-0.6136,-47.3561,76.57,87,5,9.17,clear sky
446,Shimoda,JP,2022-07-06 01:34:49,34.6667,138.95,80.96,76,93,4.88,overcast clouds
447,Sucre,BO,2022-07-06 01:34:49,-19.0333,-65.2627,57.36,41,56,4.36,broken clouds
448,Saint-Joseph,RE,2022-07-06 01:34:50,-21.3667,55.6167,66.58,78,45,11.21,scattered clouds
449,Springdale,US,2022-07-06 01:30:13,36.1867,-94.1288,91.53,54,0,10.36,clear sky
450,Saryagash,KZ,2022-07-06 01:34:50,41.4511,69.1701,69.76,24,0,5.17,clear sky
451,Pinheiro Machado,BR,2022-07-06 01:34:50,-31.5783,-53.3811,51.06,100,100,5.23,overcast clouds
452,Marystown,CA,2022-07-06 01:34:51,47.1666,-55.1483,56.86,100,1,8.34,clear sky
453,Muyezerskiy,RU,2022-07-06 01:34:51,63.9333,31.65,56.98,82,38,7.16,scattered clouds
454,Manzanillo,CU,2022-07-06 01:34:51,20.3433,-77.1167,76.35,84,100,6.76,overcast clouds
455,Grindavik,IS,2022-07-06 01:34:51,63.8424,-22.4338,53.55,100,75,5.75,light intensity drizzle
456,Nago,JP,2022-07-06 01:34:52,26.5881,127.9761,86.85,84,10,10.22,clear sky
457,Saskylakh,RU,2022-07-06 01:35:52,71.9167,114.0833,54.63,64,45,8.95,scattered clouds
458,Zhigansk,RU,2022-07-06 01:35:53,66.7697,123.3711,56.98,50,100,19.93,overcast clouds
459,Oktyabrskiy,RU,2022-07-06 01:35:53,54.4815,53.471,55.2,86,83,3.62,broken clouds
460,Erzin,TR,2022-07-06 01:35:53,36.9559,36.2,71.69,84,0,0.85,clear sky
461,Kansanshi,ZM,2022-07-06 01:35:53,-12.0951,26.4273,49.06,77,1,2.37,clear sky
462,Abalak,RU,2022-07-06 01:35:54,58.1286,68.5944,53.76,79,99,8.43,overcast clouds
463,Pontes E Lacerda,BR,2022-07-06 01:31:57,-15.2261,-59.3353,70.66,50,57,2.89,broken clouds
464,Praia,CV,2022-07-06 01:35:54,14.9215,-23.5087,75.74,83,75,14.97,broken clouds
465,Portland,US,2022-07-06 01:35:55,45.5234,-122.6762,76.5,66,100,7.0,overcast clouds
466,Rudbar,AF,2022-07-06 01:35:55,30.15,62.6,80.24,25,66,10.63,broken clouds
467,Sembakung,ID,2022-07-06 01:35:55,3.8167,117.25,75.52,94,100,2.66,overcast clouds
468,Kangaatsiaq,GL,2022-07-06 01:35:56,68.3065,-53.4641,41.07,94,100,6.64,overcast clouds
469,Puerto Carreno,CO,2022-07-06 01:35:56,6.189,-67.4859,77.07,87,94,3.27,overcast clouds
470,Aquiraz,BR,2022-07-06 01:35:56,-3.9014,-38.3911,77.09,83,10,8.34,clear sky
471,College,US,2022-07-06 01:35:56,64.8569,-147.8028,81.0,51,75,10.36,smoke
472,Leningradskiy,RU,2022-07-06 01:35:57,69.3833,178.4167,52.03,66,100,2.82,overcast clouds
473,Codrington,AU,2022-07-06 01:35:57,-38.2667,141.9667,53.71,67,0,14.25,clear sky
474,Alzamay,RU,2022-07-06 01:35:58,55.5562,98.6644,72.18,49,36,9.86,scattered clouds
475,Kavaratti,IN,2022-07-06 01:35:58,10.5669,72.642,81.41,84,100,21.68,overcast clouds
476,Yacuiba,BO,2022-07-06 01:35:58,-22.038,-63.6797,57.0,91,89,4.36,overcast clouds
477,Yekimovichi,RU,2022-07-06 01:35:58,54.1129,33.2965,61.18,93,37,0.36,scattered clouds
478,Waldkirchen,DE,2022-07-06 01:35:59,48.7327,13.6008,59.9,91,12,1.99,few clouds
479,Half Moon Bay,US,2022-07-06 01:35:59,37.4636,-122.4286,78.03,75,0,17.27,clear sky
480,Palana,RU,2022-07-06 01:35:59,59.1167,159.9667,52.61,84,100,7.78,light rain
481,Arroyo,ES,2022-07-06 01:36:00,41.6096,-4.7969,62.64,77,0,17.27,clear sky
482,Vostok,RU,2022-07-06 01:36:00,46.4856,135.8833,77.32,73,66,0.76,broken clouds
483,Mandera,KE,2022-07-06 01:36:00,3.9366,41.867,73.8,62,7,14.07,clear sky
484,Carballo,ES,2022-07-06 01:36:01,43.213,-8.691,66.0,89,15,11.83,few clouds
485,Strezhevoy,RU,2022-07-06 01:36:01,60.7333,77.5889,60.51,59,98,9.08,overcast clouds
486,Lata,PT,2022-07-06 01:36:01,40.1629,-8.3327,65.07,91,26,2.04,scattered clouds
487,Miraflores,MX,2022-07-06 01:36:02,19.2167,-98.8083,66.96,88,100,3.15,overcast clouds
488,Russell,US,2022-07-06 01:35:04,32.3502,-85.1999,89.2,83,0,0.0,clear sky
489,Ishigaki,JP,2022-07-06 01:36:02,24.3448,124.1572,87.93,79,20,16.11,few clouds
490,La Ronge,CA,2022-07-06 01:36:03,55.1001,-105.2842,68.22,45,100,5.75,overcast clouds
491,Borogontsy,RU,2022-07-06 01:36:03,62.6683,131.1683,91.8,41,2,11.72,clear sky
492,Beberibe,BR,2022-07-06 01:36:03,-4.1797,-38.1306,74.89,79,29,9.04,scattered clouds
493,Chicama,PE,2022-07-06 01:36:04,-7.8447,-79.1469,59.54,83,8,4.97,clear sky
494,Buraydah,SA,2022-07-06 01:36:04,26.326,43.975,84.65,21,5,7.99,clear sky
495,Arona,ES,2022-07-06 01:36:05,28.0996,-16.681,63.7,74,20,12.66,few clouds
496,Miramar,US,2022-07-06 01:36:05,25.9873,-80.2323,85.01,79,0,11.5,clear sky
497,Tilichiki,RU,2022-07-06 01:37:05,60.4667,166.1,58.32,66,100,2.59,light rain
498,Freeport,US,2022-07-06 01:36:19,40.6576,-73.5832,76.46,80,100,18.41,overcast clouds
499,Shahrud,IR,2022-07-06 01:37:06,36.4182,54.9763,60.66,49,0,8.52,clear sky
500,Mantua,IT,2022-07-06 01:37:06,45.1667,10.7833,78.04,74,2,10.0,clear sky
501,Maine-Soroa,NE,2022-07-06 01:37:06,13.2114,12.0241,87.04,40,100,8.66,overcast clouds
502,Bijawar,IN,2022-07-06 01:37:07,24.6333,79.5,82.83,75,98,6.2,overcast clouds
503,Hofn,IS,2022-07-06 01:37:07,64.2539,-15.2082,48.81,80,100,8.97,overcast clouds
504,Teguise,ES,2022-07-06 01:37:07,29.0605,-13.564,66.42,73,75,14.97,broken clouds
505,Tarko-Sale,RU,2022-07-06 01:37:07,64.9225,77.785,62.02,53,25,7.74,scattered clouds
506,Iskilip,TR,2022-07-06 01:37:08,40.7353,34.4739,57.49,69,0,6.58,clear sky
507,Avera,US,2022-07-06 01:37:08,33.194,-82.5271,82.54,67,80,4.34,broken clouds
508,El Tigre,VE,2022-07-06 01:37:08,8.8875,-64.2454,74.12,86,86,9.55,overcast clouds
509,Vyartsilya,RU,2022-07-06 01:37:09,62.1764,30.693,54.52,89,38,3.91,scattered clouds
510,Opuwo,NA,2022-07-06 01:37:09,-18.0607,13.84,58.14,40,0,6.11,clear sky
511,Soto La Marina,MX,2022-07-06 01:37:09,23.7667,-98.2167,83.77,75,2,12.24,clear sky
512,Tateyama,JP,2022-07-06 01:37:10,34.9833,139.8667,79.29,78,99,20.58,overcast clouds
513,Taltal,CL,2022-07-06 01:37:10,-25.4,-70.4833,58.28,71,68,6.38,broken clouds
514,Jiuquan,CN,2022-07-06 01:37:10,39.7432,98.5174,86.9,14,0,4.7,clear sky
515,Teseney,ER,2022-07-06 01:37:11,15.11,36.6575,79.81,62,5,9.01,clear sky
516,Najran,SA,2022-07-06 01:37:11,17.4924,44.1277,83.05,32,100,8.88,overcast clouds
517,Shu,KZ,2022-07-06 01:37:11,43.5983,73.7614,70.74,39,0,7.27,clear sky
518,Praia Da Vitoria,PT,2022-07-06 01:37:12,38.7333,-27.0667,66.76,88,75,8.99,broken clouds
519,Dushanbe,TJ,2022-07-06 01:37:12,38.5577,68.7797,69.62,60,20,2.24,haze
520,Jiwani,PK,2022-07-06 01:37:12,25.05,61.7417,85.1,84,100,7.83,light rain
521,Inverell,AU,2022-07-06 01:37:13,-29.7833,151.1167,60.67,100,83,1.99,light rain
522,Brenham,US,2022-07-06 01:37:13,30.1669,-96.3977,94.78,45,0,8.05,clear sky
523,Salta,AR,2022-07-06 01:37:13,-24.7859,-65.4117,47.57,86,0,3.44,clear sky
524,Noumea,NC,2022-07-06 01:37:13,-22.2763,166.4572,84.18,99,51,1.99,broken clouds
525,Le Mans,FR,2022-07-06 01:37:14,48.0,0.2,58.93,72,0,8.05,clear sky
526,Maneromango,TZ,2022-07-06 01:37:14,-7.1988,38.7848,61.81,97,87,3.91,overcast clouds
527,Bahia Honda,CU,2022-07-06 01:37:14,22.9036,-83.1592,79.32,86,100,5.5,overcast clouds
528,Jinka,ET,2022-07-06 01:37:15,5.65,36.65,66.61,57,93,1.52,overcast clouds
529,Ankang,CN,2022-07-06 01:37:15,32.68,109.0172,84.51,61,10,1.57,clear sky
530,San Jose Ojetenan,GT,2022-07-06 01:37:15,15.2167,-91.9667,42.73,96,52,3.69,broken clouds
531,Mayya,RU,2022-07-06 01:37:16,61.7333,130.2811,87.12,39,5,11.43,clear sky
532,Haines Junction,CA,2022-07-06 01:37:16,60.7522,-137.5108,80.55,34,71,4.61,broken clouds
533,Salobrena,ES,2022-07-06 01:37:16,36.7428,-3.5872,80.47,59,100,3.8,overcast clouds
534,Atar,MR,2022-07-06 01:36:39,20.5169,-13.0499,92.89,22,13,5.46,few clouds
535,Goderich,CA,2022-07-06 01:36:06,43.7501,-81.7165,65.91,94,30,6.91,scattered clouds
536,Vestmannaeyjar,IS,2022-07-06 01:37:17,63.4427,-20.2734,52.14,91,100,7.56,overcast clouds
537,Polovinnoye,RU,2022-07-06 01:37:17,54.7914,65.9864,51.69,81,100,9.66,overcast clouds
538,Juba,SS,2022-07-06 01:37:17,4.8517,31.5825,68.88,86,16,2.39,few clouds
539,High Level,CA,2022-07-06 01:37:18,58.5169,-117.136,77.11,29,20,6.91,few clouds
540,Mogocha,RU,2022-07-06 01:37:18,53.7333,119.7667,62.92,99,100,2.35,moderate rain
541,Aswan,EG,2022-07-06 01:37:18,24.0934,32.907,88.9,18,0,5.75,clear sky
542,Tiarei,PF,2022-07-06 01:37:19,-17.5333,-149.3333,84.0,75,13,15.05,light rain
543,Alyangula,AU,2022-07-06 01:37:19,-13.8483,136.4192,72.73,54,97,13.71,overcast clouds
544,Brainerd,US,2022-07-06 01:37:08,46.358,-94.2008,75.45,69,0,9.22,clear sky
545,Santa Cruz De Tenerife,ES,2022-07-06 01:35:01,28.4682,-16.2546,70.59,87,100,20.71,overcast clouds
546,Bjelovar,HR,2022-07-06 01:38:20,45.8986,16.8489,59.65,92,0,4.05,clear sky
547,Bracebridge,CA,2022-07-06 01:38:20,45.0334,-79.3163,64.89,94,75,6.91,broken clouds
548,Sept-Iles,CA,2022-07-06 01:35:02,50.2001,-66.3821,64.83,47,20,5.75,few clouds
549,Sosnogorsk,RU,2022-07-06 01:38:20,63.6023,53.8817,67.93,60,85,2.48,overcast clouds
550,Sichevita,RO,2022-07-06 01:38:21,44.735,21.8486,65.59,100,100,4.5,overcast clouds
551,Ust-Nera,RU,2022-07-06 01:38:21,64.5667,143.2,83.05,47,99,6.85,overcast clouds
552,Port Shepstone,ZA,2022-07-06 01:38:21,-30.7414,30.455,65.77,79,13,22.93,few clouds
553,Uruacu,BR,2022-07-06 01:38:22,-14.5247,-49.1408,66.42,49,0,2.57,clear sky
554,Vanimo,PG,2022-07-06 01:38:22,-2.6741,141.3028,82.36,81,63,0.83,broken clouds
555,Skibbereen,IE,2022-07-06 01:38:22,51.55,-9.2667,57.11,93,100,4.83,overcast clouds
556,Obeliai,LT,2022-07-06 01:38:22,55.9667,25.15,56.28,80,100,3.33,overcast clouds
557,Poum,NC,2022-07-06 01:38:23,-20.2333,164.0167,76.48,81,100,25.46,light rain
558,Kenai,US,2022-07-06 01:38:23,60.5544,-151.2583,72.03,73,75,12.66,broken clouds
559,Wewak,PG,2022-07-06 01:38:23,-3.5534,143.6268,83.41,73,97,3.96,light rain
560,Saint-Augustin,CA,2022-07-06 01:38:24,51.226,-58.6502,51.98,65,99,11.16,overcast clouds
561,Alexandria,EG,2022-07-06 01:38:00,31.2156,29.9553,78.76,65,0,4.61,clear sky
562,Charters Towers,AU,2022-07-06 01:38:24,-20.1,146.2667,63.9,54,0,10.38,clear sky
563,Outjo,NA,2022-07-06 01:38:25,-20.1167,16.15,54.01,50,0,4.0,clear sky
564,Kulhudhuffushi,MV,2022-07-06 01:38:25,6.6221,73.07,82.18,84,99,19.28,overcast clouds
565,Celestun,MX,2022-07-06 01:38:25,20.8667,-90.4,79.57,82,100,10.96,overcast clouds
566,Maun,BW,2022-07-06 01:38:26,-19.9833,23.4167,55.36,67,0,3.44,clear sky
567,Fiumicino,IT,2022-07-06 01:38:26,41.7675,12.2291,77.0,83,0,3.44,clear sky
568,Osypenko,UA,2022-07-06 01:38:26,46.9136,36.8253,73.92,53,49,8.12,scattered clouds
569,Medvezhyegorsk,RU,2022-07-06 01:38:27,62.9167,34.4667,60.06,82,30,5.84,scattered clouds
570,Vredendal,ZA,2022-07-06 01:38:27,-31.6683,18.5012,48.15,89,0,5.5,clear sky
571,Mana,GF,2022-07-06 01:38:27,5.6592,-53.7767,76.62,88,100,6.42,overcast clouds
572,Katsuura,JP,2022-07-06 01:38:28,35.1333,140.3,80.31,74,100,22.5,overcast clouds
573,Clinton,US,2022-07-06 01:38:28,42.587,-82.9199,87.82,78,40,11.5,scattered clouds
574,Sika,GM,2022-07-06 01:38:28,13.3546,-16.345,78.94,78,97,8.16,overcast clouds
575,Evensk,RU,2022-07-06 01:38:28,61.95,159.2333,54.43,75,100,6.2,overcast clouds
576,Raxaul,IN,2022-07-06 01:38:29,26.9833,84.85,90.59,59,11,15.32,light rain
577,Belaya Gora,RU,2022-07-06 01:38:29,68.5333,146.4167,59.38,32,96,6.33,overcast clouds
578,Manubul,PH,2022-07-06 01:38:29,5.4732,120.7986,83.16,75,37,7.76,scattered clouds
579,Jalu,LY,2022-07-06 01:38:30,29.0331,21.5482,76.39,41,0,6.6,clear sky
580,Mamlyutka,KZ,2022-07-06 01:38:30,54.9375,68.5394,51.04,94,100,10.83,light rain
581,Havelock,US,2022-07-06 01:37:09,34.8791,-76.9013,82.94,88,0,8.05,clear sky
582,Kibaha,TZ,2022-07-06 01:38:30,-6.7667,38.9167,64.2,97,57,4.61,broken clouds
583,Bozuyuk,TR,2022-07-06 01:38:31,39.9078,30.0367,55.74,83,0,1.57,clear sky
584,Itaituba,BR,2022-07-06 01:38:31,-4.2761,-55.9836,77.97,75,100,1.39,overcast clouds
585,Ola,RU,2022-07-06 01:38:31,59.5833,151.2833,75.15,82,100,5.53,overcast clouds
586,Vao,NC,2022-07-06 01:38:32,-22.6667,167.4833,75.87,71,97,14.9,overcast clouds
587,Sault Sainte Marie,CA,2022-07-06 01:35:46,46.5168,-84.3333,61.36,93,100,10.36,mist
588,Guilin,CN,2022-07-06 01:38:32,25.2819,110.2864,82.51,79,97,5.41,overcast clouds
589,Mount Isa,AU,2022-07-06 01:39:32,-20.7333,139.5,60.57,36,4,14.97,clear sky
590,Searcy,US,2022-07-06 01:39:33,35.2506,-91.7363,90.14,64,0,6.91,clear sky
591,Hanko,FI,2022-07-06 01:39:33,59.8333,22.95,58.14,73,88,14.63,light rain
592,Roald,NO,2022-07-06 01:39:33,62.5833,6.1333,54.75,87,75,17.27,broken clouds
593,Castrillon,ES,2022-07-06 01:39:34,43.3979,-6.7922,60.3,90,99,5.59,overcast clouds
594,Sao Felix Do Xingu,BR,2022-07-06 01:39:34,-6.6447,-51.995,77.94,55,90,1.39,overcast clouds
595,Kijang,KR,2022-07-06 01:39:34,35.2442,129.2139,87.53,81,100,5.1,overcast clouds
596,Mbandaka,CD,2022-07-06 01:39:34,0.0487,18.2603,69.22,92,77,3.83,broken clouds
597,Carberry,CA,2022-07-06 01:39:35,49.8689,-99.3602,70.03,92,57,6.71,broken clouds
598,Houston,US,2022-07-06 01:36:42,29.7633,-95.3633,91.8,64,0,17.27,clear sky
599,Melhus,NO,2022-07-06 01:39:35,63.2855,10.2781,49.66,92,100,10.4,overcast clouds
600,Okha,RU,2022-07-06 01:39:36,53.5739,142.9478,78.58,56,5,12.33,clear sky
601,Dongsheng,CN,2022-07-06 01:39:36,39.8161,109.9776,72.97,41,0,2.89,clear sky
602,Iguape,BR,2022-07-06 01:39:36,-24.7081,-47.5553,65.39,74,55,5.79,broken clouds
603,Maragogi,BR,2022-07-06 01:39:36,-9.0122,-35.2225,73.9,87,4,11.68,clear sky
604,Egvekinot,RU,2022-07-06 01:39:37,66.3167,-179.1667,42.66,87,97,6.4,overcast clouds
605,Myitkyina,MM,2022-07-06 01:39:37,25.3833,97.4,80.85,89,78,0.98,broken clouds
606,Palauig,PH,2022-07-06 01:39:37,15.435,119.9045,82.6,73,99,0.87,overcast clouds
607,Belmonte,BR,2022-07-06 01:35:16,-15.8631,-38.8828,71.87,86,16,9.13,few clouds
608,Makakilo City,US,2022-07-06 01:39:38,21.3469,-158.0858,82.72,61,100,20.71,overcast clouds
609,Gwadar,PK,2022-07-06 01:39:38,25.1216,62.3254,85.3,82,100,7.07,light rain
610,Udachnyy,RU,2022-07-06 01:39:38,66.4167,112.4,68.45,63,94,5.86,light rain
611,Beringovskiy,RU,2022-07-06 01:39:39,63.05,179.3167,48.47,86,100,8.34,overcast clouds
612,Salto,UY,2022-07-06 01:39:34,-31.3833,-57.9667,55.87,91,59,5.99,broken clouds
613,Sandwick,GB,2022-07-06 01:39:39,60.0,-1.25,51.62,93,100,19.57,moderate rain
614,Ouadda,CF,2022-07-06 01:39:39,8.0777,22.4007,66.31,95,97,1.86,overcast clouds
615,Lompoc,US,2022-07-06 01:39:40,34.6391,-120.4579,77.77,77,0,15.01,clear sky
616,Saint-Pierre,RE,2022-07-06 01:39:40,-21.3393,55.4781,67.68,66,100,6.91,overcast clouds
617,Campoverde,PE,2022-07-06 01:39:40,-8.4753,-74.8058,80.29,67,59,3.22,broken clouds
618,Mazamari,PE,2022-07-06 01:39:40,-11.3258,-74.5308,71.73,71,77,2.08,broken clouds
619,Christiana,ZA,2022-07-06 01:39:41,-27.914,25.1611,47.16,58,2,7.65,clear sky
620,Kokopo,PG,2022-07-06 01:39:41,-4.352,152.2633,85.12,63,100,5.06,overcast clouds
621,Seredka,RU,2022-07-06 01:39:41,58.1584,28.1858,55.15,85,99,3.87,overcast clouds
622,Dhidhdhoo,MV,2022-07-06 01:37:08,6.8833,73.1,82.33,85,100,19.26,overcast clouds
623,Voznesenye,RU,2022-07-06 01:39:42,61.0106,35.4781,58.46,88,0,9.1,clear sky
624,Pochutla,MX,2022-07-06 01:39:42,15.7432,-96.4661,82.22,89,100,4.5,overcast clouds
625,Markova,UA,2022-07-06 01:39:42,48.6758,24.4138,61.29,91,100,3.6,overcast clouds
626,Luderitz,NA,2022-07-06 01:39:43,-26.6481,15.1594,54.61,52,0,7.47,clear sky
627,Boa Vista,BR,2022-07-06 01:39:43,2.8197,-60.6733,76.98,88,75,1.14,moderate rain
628,Glace Bay,CA,2022-07-06 01:39:43,46.1969,-59.957,63.16,74,75,8.05,broken clouds
629,Joensuu,FI,2022-07-06 01:39:44,62.6012,29.7632,59.49,88,0,6.91,clear sky
630,Ferry Pass,US,2022-07-06 01:39:44,30.5102,-87.2125,82.71,87,2,5.26,clear sky
631,Dzhebariki-Khaya,RU,2022-07-06 01:39:44,62.2167,135.8,93.33,34,0,13.4,clear sky
632,Tubuala,PA,2022-07-06 01:39:45,9.5167,-79.0333,78.84,87,93,7.65,overcast clouds
633,Verkhnyaya Inta,RU,2022-07-06 01:39:45,65.9811,60.3094,57.42,72,71,2.8,broken clouds
634,Bonthe,SL,2022-07-06 01:39:45,7.5264,-12.505,76.28,84,48,4.27,light rain
635,Mujiayingzi,CN,2022-07-06 01:39:45,42.1167,118.7833,68.0,87,100,4.68,overcast clouds
636,Isiolo,KE,2022-07-06 01:39:46,0.3546,37.5822,62.6,78,63,8.32,broken clouds
637,Nelson Bay,AU,2022-07-06 01:39:46,-32.7167,152.15,64.0,99,100,21.0,light rain
638,Santiago,CL,2022-07-06 01:39:46,-33.4569,-70.6483,49.86,69,6,3.44,clear sky
639,Singapore,SG,2022-07-06 01:35:49,1.2897,103.8501,84.2,82,40,3.44,scattered clouds
640,Lahij,YE,2022-07-06 01:40:47,13.1667,44.5833,88.2,36,51,7.25,broken clouds
641,Cedral,MX,2022-07-06 01:40:47,23.8,-100.7333,74.82,44,7,12.35,clear sky
642,Yatou,CN,2022-07-06 01:40:47,37.15,122.3833,78.64,91,100,15.99,heavy intensity rain
643,Baruun-Urt,MN,2022-07-06 01:40:48,46.6806,113.2792,70.66,44,4,9.37,clear sky
644,Rzhev,RU,2022-07-06 01:40:48,56.2624,34.3282,58.95,89,88,4.21,overcast clouds
645,Imbituba,BR,2022-07-06 01:40:48,-28.24,-48.6703,70.86,95,78,6.02,broken clouds
646,Sampit,ID,2022-07-06 01:40:49,-2.5333,112.95,84.51,68,86,0.74,overcast clouds
647,Zyryanskoye,RU,2022-07-06 01:40:49,56.8306,86.6258,62.71,87,100,4.21,light rain
648,Kudahuvadhoo,MV,2022-07-06 01:40:49,2.6708,72.8944,83.32,73,98,11.99,overcast clouds
649,Mocuba,MZ,2022-07-06 01:40:49,-16.8392,36.9856,60.67,97,0,2.84,clear sky
650,Dakar,SN,2022-07-06 01:40:50,14.6937,-17.4441,82.53,83,40,6.91,scattered clouds
651,Clarence Town,AU,2022-07-06 01:40:50,-32.5833,151.7833,63.86,96,100,11.32,moderate rain
652,Maniitsoq,GL,2022-07-06 01:40:50,65.4167,-52.9,43.43,89,44,7.47,scattered clouds
653,Tupik,RU,2022-07-06 01:40:51,54.4253,119.9327,64.17,96,100,2.59,moderate rain
654,Pecos,US,2022-07-06 01:40:51,31.4229,-103.4932,83.23,61,40,11.5,scattered clouds
655,Yerkoy,TR,2022-07-06 01:40:51,39.6381,34.4672,55.56,79,0,3.15,clear sky
656,Jhajjar,IN,2022-07-06 01:40:52,28.6063,76.6565,91.33,45,37,13.76,scattered clouds
657,Alugan,PH,2022-07-06 01:40:52,12.2188,125.4808,84.78,70,100,1.97,overcast clouds
658,Bilibino,RU,2022-07-06 01:40:52,68.0546,166.4372,55.56,84,100,3.91,light rain
659,Sabha,LY,2022-07-06 01:40:53,27.0377,14.4283,80.29,33,0,10.09,clear sky
660,Roros,NO,2022-07-06 01:40:53,62.5747,11.3842,42.64,93,100,0.0,overcast clouds
661,Ayakudi,IN,2022-07-06 01:40:53,10.45,77.55,79.43,67,100,11.05,overcast clouds
662,Ambilobe,MG,2022-07-06 01:40:54,-13.2,49.05,61.12,77,7,3.62,clear sky
663,Kharp,RU,2022-07-06 01:40:54,66.8014,65.8081,61.0,76,76,3.27,broken clouds
664,Timbiras,BR,2022-07-06 01:40:54,-4.2553,-43.9406,72.3,87,0,0.6,clear sky
665,Marabba,SD,2022-07-06 01:40:54,12.35,32.1833,82.33,57,12,6.82,few clouds
666,Lazaro Cardenas,MX,2022-07-06 01:40:55,17.9583,-102.2,79.27,84,100,2.01,overcast clouds
667,Siniscola,IT,2022-07-06 01:40:55,40.5719,9.6922,81.95,53,45,5.59,scattered clouds
668,Chapada Dos Guimaraes,BR,2022-07-06 01:40:55,-15.4606,-55.7497,62.26,35,0,5.97,clear sky
669,Ati,TD,2022-07-06 01:40:56,13.2154,18.3353,79.12,65,100,16.8,overcast clouds
670,Safford,US,2022-07-06 01:40:56,32.834,-109.7076,97.72,23,20,18.41,few clouds
671,Mlonggo,ID,2022-07-06 01:40:56,-6.5333,110.7,83.26,72,48,1.48,scattered clouds
672,Sorland,NO,2022-07-06 01:40:57,67.667,12.6934,49.86,76,95,16.33,overcast clouds
673,Fukue,JP,2022-07-06 01:40:57,32.6881,128.8419,82.76,100,75,6.91,broken clouds
674,Puerto Ayacucho,VE,2022-07-06 01:40:57,5.6639,-67.6236,74.75,93,92,2.44,overcast clouds
675,Kungurtug,RU,2022-07-06 01:40:57,50.5994,97.5228,64.98,46,73,4.63,broken clouds
